id,name,latitude,longitude,description
1,Location A,50.4501,30.5234,Kyiv city center
2,Location B,49.8397,24.0297,Lviv city center
3,Location C,48.9226,24.7111,Ivano-Frankivsk city center
4,Location D,46.4825,30.7233,Odesa city center
5,Location E,47.8388,35.1396,Zaporizhzhia city center